County,Population_2020,Latitude,Longitude
Bear River,142393,41.73698,-111.833835
Central Utah,30277,39.3627,-111.5706
Davis,373207,40.9629,-111.908
Salt Lake,1185813,40.7608,-111.891
Southeast Utah,14358,37.6257,-109.4675
Southwest Utah,202452,37.2898,-113.5839
Summit,42759,40.8244,-111.2038
Tooele,82051,40.5308,-112.2983
TriCounty,37747,40.15,-109.5121
Utah,659399,40.12,-111.67
Wasatch,37144,40.487,-111.2955
Weber-Morgan,284926,41.2603,-111.9485
